City/Town,State or union territory,Place,Latitude,Longitude,AVERAGE,Exceeding/Not exceeding
Abohar,Punjab,"Abohar, Punjab",30.14686,74.2008185,68.21999969,Exceeding
Achhnera,Uttar Pradesh,"Achhnera, Uttar Pradesh",27.17737,77.7537913,108.1600006,Exceeding
Adalaj,Gujarat,"Adalaj, Gujarat",23.1667,72.58095,59.47999954,Exceeding
Adra,West Bengal,"Adra, West Bengal",23.49589,86.6762176,76.22000122,Exceeding
Agartala,Tripura,"Agartala, Tripura",23.83146,91.2867777,75.82000122,Exceeding
Ajmer,Rajasthan,"Ajmer, Rajasthan",26.4499,74.6399163,57.84000015,Exceeding
Akot,Maharashtra,"Akot, Maharashtra",21.09734,77.053568,50.75999985,Exceeding
Aligarh,Uttar Pradesh,"Aligarh, Uttar Pradesh",27.89739,78.0880129,106.0000015,Exceeding
Amalner,Maharashtra,"Amalner, Maharashtra",21.04192,75.0581943,50.26000061,Exceeding
Ambarnath,Maharashtra,"Ambarnath, Maharashtra",19.18252,73.1926023,43.9,Exceeding
Amroha,Uttar Pradesh,"Amroha, Uttar Pradesh",28.90518,78.467318,66.59999924,Exceeding
Anand,Gujarat,"Anand, Gujarat",22.56452,72.928871,49.45999985,Exceeding
Anjangaon,Maharashtra,"Anjangaon, Maharashtra",21.1671,77.3152116,48.99999924,Exceeding
Anjar,Gujarat,"Anjar, Gujarat",23.11667,70.0281023,50.88000107,Exceeding
Ankleshwar,Gujarat,"Ankleshwar, Gujarat",21.62642,73.0151984,43.44000015,Exceeding
"Anpara, Uttar Pradesh",Uttar Pradesh,"Anpara, Uttar Pradesh",24.2048772,82.7832489,49.3,Exceeding
Arambagh,West Bengal,"Arambagh, West Bengal",22.8765,87.7909507,73.15999908,Exceeding
Araria,Bihar,"Araria, Bihar",26.13247,87.4528067,68.60000153,Exceeding
Arrah,Bihar,"Arrah, Bihar",25.55414,84.6664797,90.83999939,Exceeding
Arvi,Maharashtra,"Arvi, Maharashtra",21.00101,78.230741,50.77999878,Exceeding
Arwal,Bihar,"Arwal, Bihar",25.24276,84.6655981,85.7,Exceeding
Asarganj,Bihar,"Asarganj, Bihar",25.1476,86.6875465,73.58000031,Exceeding
Ashok Nagar,Madhya Pradesh,"Ashok Nagar, Madhya Pradesh",24.57751,77.7318495,53,Exceeding
Aurangabad,Bihar,"Aurangabad, Bihar",24.70332,84.3542049,68.05999985,Exceeding
Bagha Kusmar,Bihar,"Bagha Kusmar, Bihar",26.41893,86.4161998,76.01999817,Exceeding
Bahraich,Uttar Pradesh,"Bahraich, Uttar Pradesh",27.57052,81.5976672,89.9,Exceeding
Bajpur,Uttarakhand,"Bajpur, Uttarakhand",29.15853,79.1463868,49,Exceeding
Balangir,Odisha,"Balangir, Odisha",20.70111,83.4846069,59.79999924,Exceeding
"Balasore, Odisha",Odisha,"Balasore, Odisha",21.4933578,86.9134794,47.18000107,Exceeding
Ballia,Uttar Pradesh,"Ballia, Uttar Pradesh",25.76312,84.149622,97.90000153,Exceeding
Bally,West Bengal,"Bally, West Bengal",22.64967,88.3386447,64.86000061,Exceeding
Balurghat,West Bengal,"Balurghat, West Bengal",25.23728,88.7830612,65.73999939,Exceeding
Barahiya,Bihar,"Barahiya, Bihar",25.28355,86.0172595,85.66000061,Exceeding
Baranagar,West Bengal,"Baranagar, West Bengal",22.64374,88.3776948,64.78000031,Exceeding
Barasat,West Bengal,"Barasat, West Bengal",22.72476,88.4789351,60.98000031,Exceeding
Barauli,Bihar,"Barauli, Bihar",26.3964,84.5848309,105.5200012,Exceeding
Barbigha,Bihar,"Barbigha, Bihar",25.22077,85.7318435,84.99999847,Exceeding
Barbil,Odisha,"Barbil, Odisha",22.10534,85.3789642,56.95999985,Exceeding
Bardhaman,West Bengal,"Bardhaman, West Bengal",23.23242,87.8614793,76.60000153,Exceeding
Bareilly,Uttar Pradesh,"Bareilly, Uttar Pradesh",28.36704,79.4304381,83.88000031,Exceeding
Bargarh,Odisha,"Bargarh, Odisha",21.34702,83.6320212,66.55999908,Exceeding
Barh,Bihar,"Barh, Bihar",25.47227,85.7081842,100.6800003,Exceeding
Barnala,Punjab,"Barnala, Punjab",30.38194,75.5467979,80.71999969,Exceeding
Batala,Punjab,"Batala, Punjab",31.81952,75.2035876,67.54000015,Exceeding
Bathinda,Punjab,"Bathinda, Punjab",30.21099,74.9454745,81.7,Exceeding
Begusarai,Bihar,"Begusarai, Bihar",25.41816,86.1271542,87.27999878,Exceeding
Belonia,Tripura,"Belonia, Tripura",23.25049,91.4676394,77.30000153,Exceeding
Berhampore,West Bengal,"Berhampore, West Bengal",24.09826,88.268411,63.95999985,Exceeding
Bettiah,Bihar,"Bettiah, Bihar",26.80256,84.520147,98.60000153,Exceeding
Bhabua,Bihar,"Bhabua, Bihar",25.04262,83.6055732,72.96000214,Exceeding
Bhagalpur,Bihar,"Bhagalpur, Bihar",25.24245,86.9842256,73.33999939,Exceeding
Bhalswa Jahangir Pur,Delhi,"Bhalswa Jahangir Pur, Delhi",28.73501,77.1636148,119.3200012,Exceeding
Bharatpur,Rajasthan,"Bharatpur, Rajasthan",27.21519,77.5029996,94.46000214,Exceeding
Bhatapara,Chhattisgarh,"Bhatapara, Chhattisgarh",21.73705,81.947318,77.35999908,Exceeding
Bhatpara,West Bengal,"Bhatpara, West Bengal",22.85358,88.3911634,65.74000015,Exceeding
Bhavnagar,Gujarat,"Bhavnagar, Gujarat",21.76447,72.1519304,44.11999969,Exceeding
Bhilai,Chhattisgarh,"Bhilai, Chhattisgarh",21.19385,81.3509416,81.48000031,Exceeding
Bhilwara,Rajasthan,"Bhilwara, Rajasthan",25.34074,74.6313183,52.55999985,Exceeding
Bhind,Madhya Pradesh,"Bhind, Madhya Pradesh",26.56378,78.7860916,102.4800003,Exceeding
Bhiwani,Haryana,"Bhiwani, Haryana",28.79747,76.1322058,90.90000153,Exceeding
Bhubaneswar,Odisha,"Bhubaneswar, Odisha",20.29606,85.8245398,45.3,Exceeding
Bhusawal,Maharashtra,"Bhusawal, Maharashtra",21.04177,75.7875517,54.08000031,Exceeding
Bhusawar,Rajasthan,"Bhusawar, Rajasthan",27.03555,77.0506896,84.6,Exceeding
Bidhannagar,West Bengal,"Bidhannagar, West Bengal",22.57968,88.414312,61.34000015,Exceeding
Bihar Sharif,Bihar,"Bihar Sharif, Bihar",25.20497,85.517437,86.9,Exceeding
Bikaner,Rajasthan,"Bikaner, Rajasthan",28.02293,73.3119159,53.24000092,Exceeding
Bilaspur,Chhattisgarh,"Bilaspur, Chhattisgarh",22.07965,82.1409152,73.08000031,Exceeding
Bindki,Uttar Pradesh,"Bindki, Uttar Pradesh",26.02856,80.5771737,100.2600006,Exceeding
Bodhan,Telangana,"Bodhan, Telangana",18.67944,77.8767442,43.44000015,Exceeding
Bokaro,Jharkhand,"Bokaro, Jharkhand",23.6693,86.151112,74.77999878,Exceeding
Budaun,Uttar Pradesh,"Budaun, Uttar Pradesh",28.03111,79.1271229,92.58000031,Exceeding
Budhlada,Punjab,"Budhlada, Punjab",29.92669,75.5541854,84.06000061,Exceeding
Bulandshahr,Uttar Pradesh,"Bulandshahr, Uttar Pradesh",28.40696,77.8498292,94.62000122,Exceeding
Burhanpur,Madhya Pradesh,"Burhanpur, Madhya Pradesh",21.3145,76.2180095,51.85999908,Exceeding
Buxar,Bihar,"Buxar, Bihar",25.56471,83.9777482,98.08000031,Exceeding
Byasanagar,Odisha,"Byasanagar, Odisha",20.95506,86.1271048,48.04000092,Exceeding
"Byrnihat, Meghalaya",Meghalaya,"Byrnihat, Meghalaya",26.0515133,91.8696411,42,Exceeding
Chaibasa,Jharkhand,"Chaibasa, Jharkhand",22.54744,85.8025373,66.9,Exceeding
Chakradharpur,Jharkhand,"Chakradharpur, Jharkhand",22.67655,85.6254997,62.30000076,Exceeding
Chandpara,West Bengal,"Chandpara, West Bengal",22.97632,88.7814325,59.99999924,Exceeding
Charkhari,Uttar Pradesh,"Charkhari, Uttar Pradesh",25.40188,79.7501005,72.86000061,Exceeding
Charkhi Dadri,Haryana,"Charkhi Dadri, Haryana",28.59206,76.2652909,91.31999969,Exceeding
Charthaval,Uttar Pradesh,"Charthaval, Uttar Pradesh",29.54399,77.5920285,72.7,Exceeding
Chatra,Jharkhand,"Chatra, Jharkhand",24.20654,84.871802,49.10000076,Exceeding
Chhapra,Bihar,"Chhapra, Bihar",25.78114,84.7543413,95.51999817,Exceeding
Chhapra,Gujarat,"Chhapra, Gujarat",22.2187,70.6029934,44.67999954,Exceeding
Chinsurah,West Bengal,"Chinsurah, West Bengal",22.90116,88.3898552,73.04000092,Exceeding
Chirkunda,Jharkhand,"Chirkunda, Jharkhand",23.74789,86.7868768,71.98000031,Exceeding
Chirmiri,Chhattisgarh,"Chirmiri, Chhattisgarh",23.18795,82.354162,44.53999939,Exceeding
DalliRajhara,Chhattisgarh,"DalliRajhara, Chhattisgarh",20.58148,81.0711219,53.3,Exceeding
Daltonganj,Jharkhand,"Daltonganj, Jharkhand",24.04651,84.0768462,46.53999939,Exceeding
Danapur,Bihar,"Danapur, Bihar",25.62414,85.0414249,97.76000061,Exceeding
Darbhanga,Bihar,"Darbhanga, Bihar",26.1542,85.8918454,91.53999939,Exceeding
Daudnagar,Bihar,"Daudnagar, Bihar",25.03323,84.3988806,81.36000061,Exceeding
Degana,Rajasthan,"Degana, Rajasthan",26.89183,74.3176876,60.46000061,Exceeding
Dehri,Bihar,"Dehri, Bihar",24.90612,84.191193,74.79999847,Exceeding
Deoghar,Jharkhand,"Deoghar, Jharkhand",24.48518,86.694785,57.82000046,Exceeding
"Dera Baba Nanak, Punjab",Punjab,"Dera Baba Nanak, Punjab",32.0321859,75.0304481,72.25999908,Exceeding
"Dera Bassi, Chandigarh",Chandigarh,"Dera Bassi, Chandigarh",30.5886835,76.8470955,53.38000031,Exceeding
Dhamtari,Chhattisgarh,"Dhamtari, Chhattisgarh",20.7015,81.5541579,70.13999939,Exceeding
Dharmanagar,Tripura,"Dharmanagar, Tripura",24.37832,92.1548473,48.45999985,Exceeding
Dhenkanal,Odisha,"Dhenkanal, Odisha",20.65048,85.5981223,51.34000015,Exceeding
Dhubri,Assam,"Dhubri, Assam",26.0207,89.9743463,47.4,Exceeding
Dhule,Maharashtra,"Dhule, Maharashtra",20.90422,74.7748979,47.97999954,Exceeding
Dhuri,Punjab,"Dhuri, Punjab",30.36929,75.8606548,79.32000122,Exceeding
Dildarnagar,Uttar Pradesh,"Dildarnagar, Uttar Pradesh",25.43112,83.6669287,95.69999847,Exceeding
Dineshpur,Uttarakhand,"Dineshpur, Uttarakhand",29.04625,79.3212058,50.05999985,Exceeding
Doiwala,Uttarakhand,"Doiwala, Uttarakhand",30.17588,78.1242422,49.15999985,Exceeding
Dumka,Jharkhand,"Dumka, Jharkhand",24.26848,87.2488088,57.31999893,Exceeding
Dumraon,Bihar,"Dumraon, Bihar",25.55011,84.1500155,93.21999969,Exceeding
Durg,Chhattisgarh,"Durg, Chhattisgarh",21.19045,81.2849169,78.87999878,Exceeding
Ellenabad,Haryana,"Ellenabad, Haryana",29.45226,74.6693186,76.22000122,Exceeding
Etawah,Uttar Pradesh,"Etawah, Uttar Pradesh",26.78291,79.027659,106.4200012,Exceeding
Faizabad,Uttar Pradesh,"Faizabad, Uttar Pradesh",26.77298,82.1457934,103.1199997,Exceeding
Faridkot,Punjab,"Faridkot, Punjab",30.5932,74.8273184,81.55999908,Exceeding
Faridkot,Punjab,"Faridkot, Punjab",30.5932,74.8273184,81.55999908,Exceeding
Farrukhabad,Uttar Pradesh,"Farrukhabad, Uttar Pradesh",27.38259,79.5840195,104.4199997,Exceeding
Fatehabad,Haryana,"Fatehabad, Haryana",29.51318,75.4509532,85.58000183,Exceeding
Fatehpur,Uttar Pradesh,"Fatehpur, Uttar Pradesh",25.92095,80.7996035,103.6600006,Exceeding
Fazilka,Punjab,"Fazilka, Punjab",30.40365,74.0279621,66.66000137,Exceeding
Firozpur,Punjab,"Firozpur, Punjab",30.93313,74.6224755,83.04000244,Exceeding
Firozpur Cantonment,Punjab,"Firozpur Cantonment, Punjab",30.91074,74.6224755,83.02000122,Exceeding
Forbesganj,Bihar,"Forbesganj, Bihar",26.2986,87.268613,66.8,Exceeding
Gadarpur,Uttarakhand,"Gadarpur, Uttarakhand",29.03968,79.2504135,51.20000076,Exceeding
Gandhidham,Gujarat,"Gandhidham, Gujarat",23.0753,70.133673,50.33999939,Exceeding
Gandhinagar,Gujarat,"Gandhinagar, Gujarat",23.21564,72.6369415,58.21999969,Exceeding
Gangarampur,West Bengal,"Gangarampur, West Bengal",25.40091,88.5323606,64.92000046,Exceeding
Garhwa,Jharkhand,"Garhwa, Jharkhand",24.1549,83.7995617,46.61999969,Exceeding
Giridih,Jharkhand,"Giridih, Jharkhand",24.19135,86.2996368,65.22000122,Exceeding
Gohana,Haryana,"Gohana, Haryana",29.13931,76.6944877,99.78000031,Exceeding
Gopalganj,Bihar,"Gopalganj, Bihar",26.48316,84.43655,108.1400009,Exceeding
Gorakhpur,Uttar Pradesh,"Gorakhpur, Uttar Pradesh",26.76055,83.3731675,100.6999985,Exceeding
Gumia,Jharkhand,"Gumia, Jharkhand",23.80809,85.8230251,68.72000046,Exceeding
Guna,Madhya Pradesh,"Guna, Madhya Pradesh",24.63236,77.3001762,51.86000061,Exceeding
Gurdaspur,Punjab,"Gurdaspur, Punjab",32.04139,75.403086,55.32000046,Exceeding
Gurgaon,Haryana,"Gurgaon, Haryana",28.4595,77.0266383,122.9200027,Exceeding
Hajipur,Bihar,"Hajipur, Bihar",25.69244,85.208324,98.22000122,Exceeding
Hansi,Haryana,"Hansi, Haryana",29.09726,75.9638162,92.7,Exceeding
Hapur,Uttar Pradesh,"Hapur, Uttar Pradesh",28.73058,77.7758825,87.88000031,Exceeding
Haridwar,Uttarakhand,"Haridwar, Uttarakhand",29.94569,78.1642478,50.67999954,Exceeding
Hazaribagh,Jharkhand,"Hazaribagh, Jharkhand",23.99247,85.3636758,52.08000031,Exceeding
Herbertpur,Uttarakhand,"Herbertpur, Uttarakhand",30.43829,77.7366242,48.85999985,Exceeding
Himatnagar,Gujarat,"Himatnagar, Gujarat",23.59689,72.9630378,54.08000031,Exceeding
Hisar,Haryana,"Hisar, Haryana",29.14919,75.7216527,84.96000061,Exceeding
Hoshiarpur,Punjab,"Hoshiarpur, Punjab",31.51432,75.911483,58.47999954,Exceeding
Ichalkaranji,Maharashtra,"Ichalkaranji, Maharashtra",16.68862,74.4593101,45.05999985,Exceeding
Itarsi,Madhya Pradesh,"Itarsi, Madhya Pradesh",22.61145,77.7623321,51.62000046,Exceeding
Jagraon,Punjab,"Jagraon, Punjab",30.79233,75.4670189,76.91999969,Exceeding
Jalandhar Cantt.,Punjab,"Jalandhar Cantt., Punjab",31.2885,75.6203283,75.16000061,Exceeding
Jamalpur,Bihar,"Jamalpur, Bihar",25.31804,86.4934065,79.42000122,Exceeding
Jamnagar,Gujarat,"Jamnagar, Gujarat",22.4707,70.05773,50.34000015,Exceeding
Jamui,Bihar,"Jamui, Bihar",24.91951,86.224718,78.54000244,Exceeding
Jaspur,Uttarakhand,"Jaspur, Uttarakhand",29.27833,78.82668,46.74000015,Exceeding
Jatani,Odisha,"Jatani, Odisha",20.16235,85.7011384,43.93999939,Exceeding
Jaunpur,Uttar Pradesh,"Jaunpur, Uttar Pradesh",25.74641,82.6837033,105.3199997,Exceeding
Jaynagar Majilpur,West Bengal,"Jaynagar Majilpur, West Bengal",22.17419,88.4234245,63.76000061,Exceeding
Jehanabad,Bihar,"Jehanabad, Bihar",25.21326,84.9853322,82.97999878,Exceeding
Jhabrera,Uttarakhand,"Jhabrera, Uttarakhand",29.80434,77.7966975,66.01999969,Exceeding
Jhargram,West Bengal,"Jhargram, West Bengal",22.45499,86.9974385,67.24000168,Exceeding
Jharsuguda,Odisha,"Jharsuguda, Odisha",21.85544,84.0061661,58.84000015,Exceeding
Jhumri Tilaiya,Jharkhand,"Jhumri Tilaiya, Jharkhand",24.43148,85.5309898,57.94000015,Exceeding
Jind,Haryana,"Jind, Haryana",29.32551,76.2997909,93.38000031,Exceeding
Kadi,Gujarat,"Kadi, Gujarat",23.29732,72.3302421,55.67999954,Exceeding
Kailasahar,Tripura,"Kailasahar, Tripura",24.32681,92.0126276,53.81999969,Exceeding
Kaithal,Haryana,"Kaithal, Haryana",29.80428,76.4039016,82.91999969,Exceeding
"Kala Amb, Himachal Pradesh",Himachal Pradesh,"Kala Amb, Himachal Pradesh",30.4992306,77.2070259,48.83999939,Exceeding
Kaladhungi,Uttarakhand,"Kaladhungi, Uttarakhand",29.28537,79.3479638,46.78000031,Exceeding
"Kalinga Nagar, Odisha",Odisha,"Kalinga Nagar, Odisha",20.270059,85.7590851,45.32000046,Exceeding
Kalpi,Uttar Pradesh,"Kalpi, Uttar Pradesh",26.12096,79.7483995,93.36000061,Exceeding
Kalyan Dombivli,Maharashtra,"Kalyan Dombivli, Maharashtra",19.2094,73.0939483,43.19999924,Exceeding
Kamarhati,West Bengal,"Kamarhati, West Bengal",22.68467,88.3706491,59.20000076,Exceeding
Kapadvanj,Gujarat,"Kapadvanj, Gujarat",23.02002,73.0700421,50.76000061,Exceeding
Kapurthala,Punjab,"Kapurthala, Punjab",31.37226,75.4017654,75.48000031,Exceeding
Karawal Nagar,Delhi,"Karawal Nagar, Delhi",28.7301,77.2722702,116.1799988,Exceeding
Karimnagar,Telangana,"Karimnagar, Telangana",18.43856,79.1288412,43.44000015,Exceeding
Karjat,Maharashtra,"Karjat, Maharashtra",18.91021,73.3282612,41.76000061,Exceeding
Karnal,Haryana,"Karnal, Haryana",29.68569,76.9904825,80.39999847,Exceeding
"Kashipur, Uttarakhand",Uttarakhand,"Kashipur, Uttarakhand",29.2104232,78.9618845,47.91999969,Exceeding
Katihar,Bihar,"Katihar, Bihar",25.55406,87.5591073,79.7,Exceeding
Katni,Madhya Pradesh,"Katni, Madhya Pradesh",23.83434,80.3893814,50.97999878,Exceeding
Kela Khera,Uttarakhand,"Kela Khera, Uttarakhand",29.08615,79.1746054,50.72000046,Exceeding
Kendrapara,Odisha,"Kendrapara, Odisha",20.49691,86.4288534,44.92000046,Exceeding
Kendujhar,Odisha,"Kendujhar, Odisha",21.62893,85.5816847,50.11999969,Exceeding
Khairthal,Rajasthan,"Khairthal, Rajasthan",27.80116,76.6441591,83.96000061,Exceeding
Khambhat,Gujarat,"Khambhat, Gujarat",22.31808,72.6189845,46.45999985,Exceeding
Khanda,Haryana,"Khanda, Haryana",28.92169,76.8980371,116.3000015,Exceeding
Khandwa,Madhya Pradesh,"Khandwa, Madhya Pradesh",21.8314,76.3497612,53.61999969,Exceeding
Kharagpur,West Bengal,"Kharagpur, West Bengal",22.34601,87.2319753,60.66000061,Exceeding
Kharar,Punjab,"Kharar, Punjab",30.74987,76.6411094,56.58000031,Exceeding
Khatima,Uttarakhand,"Khatima, Uttarakhand",28.92092,79.9696277,51.2,Exceeding
"Khora, Ghaziabad",Uttar Pradesh,"Khora, Ghaziabad, Uttar Pradesh",28.75392,77.3999054,108.3399994,Exceeding
Khowai,Tripura,"Khowai, Tripura",24.06718,91.6056718,65.90000076,Exceeding
"Khurja, Uttar Pradesh",Uttar Pradesh,"Khurja, Uttar Pradesh",28.2489801,77.854903,97.71999817,Exceeding
Kichha,Uttarakhand,"Kichha, Uttarakhand",28.91151,79.5153705,53.34000092,Exceeding
Kirari Suleman Nagar,Delhi,"Kirari Suleman Nagar, Delhi",28.69679,77.0643614,121.4600006,Exceeding
Kishanganj,Bihar,"Kishanganj, Bihar",26.09822,87.9450379,60.23999939,Exceeding
Kora Jahanabad,Uttar Pradesh,"Kora Jahanabad, Uttar Pradesh",26.10168,80.3713973,102.7600006,Exceeding
Kot Kapura,Punjab,"Kot Kapura, Punjab",30.58283,74.8150431,81.53999939,Exceeding
Kulpahar,Uttar Pradesh,"Kulpahar, Uttar Pradesh",25.30874,79.6389821,71.67999725,Exceeding
Kulti,West Bengal,"Kulti, West Bengal",23.72999,86.8399213,72.6,Exceeding
Kumarganj,Uttar Pradesh,"Kumarganj, Uttar Pradesh",26.54678,81.8401957,105.2,Exceeding
Lachhmangarh,Rajasthan,"Lachhmangarh, Rajasthan",27.82147,75.0268822,58.04000015,Exceeding
Ladnu,Rajasthan,"Ladnu, Rajasthan",27.64429,74.3880699,57.7,Exceeding
Ladwa,Haryana,"Ladwa, Haryana",29.99318,77.0474325,71.68000031,Exceeding
Lahar,Madhya Pradesh,"Lahar, Madhya Pradesh",26.19389,78.9443807,90.03999939,Exceeding
Laharpur,Uttar Pradesh,"Laharpur, Uttar Pradesh",27.7101,80.901416,92.88000031,Exceeding
Lakheri,Rajasthan,"Lakheri, Rajasthan",25.66495,76.181272,62.67999954,Exceeding
Lakhisarai,Bihar,"Lakhisarai, Bihar",25.15715,86.0951592,79.28000031,Exceeding
Laksar,Uttarakhand,"Laksar, Uttarakhand",29.75384,78.021482,59.94000015,Exceeding
Lal Gopalganj Nindaura,Uttar Pradesh,"Lal Gopalganj Nindaura, Uttar Pradesh",25.65276,81.6199484,106.6400009,Exceeding
Lalganj,Bihar,"Lalganj, Bihar",25.86396,85.1764491,104.8399994,Exceeding
Lalganj,Uttar Pradesh,"Lalganj, Uttar Pradesh",26.16506,80.9705292,107.3800003,Exceeding
Lalkuan,Uttarakhand,"Lalkuan, Uttarakhand",29.06762,79.5181884,49.25999985,Exceeding
Lalsot,Rajasthan,"Lalsot, Rajasthan",26.56062,76.3281212,63.68000107,Exceeding
Landhaura,Uttarakhand,"Landhaura, Uttarakhand",29.79474,77.9081752,61.36000061,Exceeding
Lar,Uttar Pradesh,"Lar, Uttar Pradesh",26.20465,83.9691346,99.32000122,Exceeding
Limbdi,Gujarat,"Limbdi, Gujarat",22.56876,71.801943,46.87999954,Exceeding
Lohardaga,Jharkhand,"Lohardaga, Jharkhand",23.44093,84.6845216,52.81999969,Exceeding
Lonar,Maharashtra,"Lonar, Maharashtra",19.97578,76.5069107,44.44000015,Exceeding
Longowal,Punjab,"Longowal, Punjab",30.20009,75.6755215,81.23999939,Exceeding
Loni,Uttar Pradesh,"Loni, Uttar Pradesh",28.73335,77.2986264,115.8600006,Exceeding
Losal,Rajasthan,"Losal, Rajasthan",27.39569,74.9267229,61.64000015,Exceeding
Lunawada,Gujarat,"Lunawada, Gujarat",23.13001,73.61087,48.81999969,Exceeding
Madhepura,Bihar,"Madhepura, Bihar",25.92397,86.7946387,80.28000031,Exceeding
Madhubani,Bihar,"Madhubani, Bihar",26.34829,86.0711661,83.4,Exceeding
Madhupur,Jharkhand,"Madhupur, Jharkhand",24.2659,86.6467108,56.77999954,Exceeding
Madhyamgram,West Bengal,"Madhyamgram, West Bengal",22.6924,88.4653367,60.27999878,Exceeding
Maharajganj,Bihar,"Maharajganj, Bihar",26.11121,84.5038658,103.1,Exceeding
Maharajpur,Madhya Pradesh,"Maharajpur, Madhya Pradesh",26.48186,77.9752926,100.3199997,Exceeding
Mahasamund,Chhattisgarh,"Mahasamund, Chhattisgarh",21.11241,82.095962,73.6,Exceeding
Mahemdabad,Gujarat,"Mahemdabad, Gujarat",22.82556,72.7570789,54.95999985,Exceeding
Mahendragarh,Haryana,"Mahendragarh, Haryana",28.27342,76.1401349,79.61999969,Exceeding
Maheshtala,West Bengal,"Maheshtala, West Bengal",22.50559,88.2500038,53.81999969,Exceeding
Mahnar Bazar,Bihar,"Mahnar Bazar, Bihar",25.61411,85.4865371,96.74000092,Exceeding
Mahua Dabra Haripura,Uttarakhand,"Mahua Dabra Haripura, Uttarakhand",29.27503,78.7872876,47.77999954,Exceeding
Mahua Kheraganj,Uttarakhand,"Mahua Kheraganj, Uttarakhand",29.13604,78.9429666,52.22000046,Exceeding
Maihar,Madhya Pradesh,"Maihar, Madhya Pradesh",24.26578,80.7624352,54.97999954,Exceeding
Mainaguri,West Bengal,"Mainaguri, West Bengal",26.57383,88.8214984,53.77999954,Exceeding
Makhdumpur,Bihar,"Makhdumpur, Bihar",25.06557,84.9739521,81.75999908,Exceeding
Makrana,Rajasthan,"Makrana, Rajasthan",27.02856,74.714621,55.61999969,Exceeding
Malaj Khand,Madhya Pradesh,"Malaj Khand, Madhya Pradesh",22.04941,80.7160777,48.54000015,Exceeding
Malda,West Bengal,"Malda, West Bengal",25.01084,88.1410967,64.88000107,Exceeding
Malda,West Bengal,"Malda, West Bengal",25.01084,88.1410967,64.88000107,Exceeding
Malegaon,Maharashtra,"Malegaon, Maharashtra",20.5579,74.5089457,46.62000046,Exceeding
Malerkotla,Punjab,"Malerkotla, Punjab",30.52458,75.8783443,79.21999969,Exceeding
Malkapur,Maharashtra,"Malkapur, Maharashtra",20.88433,76.2026077,52.58000031,Exceeding
Malout,Punjab,"Malout, Punjab",30.18902,74.4996955,75.36000061,Exceeding
Malpura,Rajasthan,"Malpura, Rajasthan",26.30057,75.3696614,62.71999817,Exceeding
Manasa,Madhya Pradesh,"Manasa, Madhya Pradesh",24.4748,75.140385,57.05999985,Exceeding
Manavadar,Gujarat,"Manavadar, Gujarat",21.49318,70.1366499,41.34000015,Exceeding
Manawar,Madhya Pradesh,"Manawar, Madhya Pradesh",22.23667,75.0873956,54.91999969,Exceeding
Mandalgarh,Rajasthan,"Mandalgarh, Rajasthan",25.19776,75.0932352,54.6,Exceeding
Mandawa,Rajasthan,"Mandawa, Rajasthan",28.05002,75.1487007,60.42000046,Exceeding
Mandi Dabwali,Haryana,"Mandi Dabwali, Haryana",29.97015,74.7043392,80.7,Exceeding
Mandideep,Madhya Pradesh,"Mandideep, Madhya Pradesh",23.09928,77.5114731,51.4,Exceeding
Mandla,Madhya Pradesh,"Mandla, Madhya Pradesh",22.59792,80.3713855,48.3,Exceeding
Mandvi,Gujarat,"Mandvi, Gujarat",22.83333,69.3554783,43.63999939,Exceeding
Manendragarh,Chhattisgarh,"Manendragarh, Chhattisgarh",23.21339,82.1936679,46.11999969,Exceeding
Maner Sharif,Bihar,"Maner Sharif, Bihar",25.64757,84.8752085,97.8,Exceeding
Manglaur,Uttarakhand,"Manglaur, Uttarakhand",29.78855,77.8797138,61.4,Exceeding
Mango,Jharkhand,"Mango, Jharkhand",22.83844,86.2293535,71.46000061,Exceeding
Mangrol,Rajasthan,"Mangrol, Rajasthan",25.33624,76.5112471,63.44000092,Exceeding
Mangrulpir,Maharashtra,"Mangrulpir, Maharashtra",20.31487,77.3419417,45.04000092,Exceeding
Manihari,Bihar,"Manihari, Bihar",25.34606,87.6226819,80.6,Exceeding
Manjlegaon,Maharashtra,"Manjlegaon, Maharashtra",19.16467,76.2044549,42.55999985,Exceeding
Mankachar,Assam,"Mankachar, Assam",25.53548,89.8622017,56.4,Exceeding
Mansa,Punjab,"Mansa, Punjab",29.99951,75.3936808,81.50000153,Exceeding
Mansa,Gujarat,"Mansa, Gujarat",23.43499,72.6565084,55.32000046,Exceeding
Manwath,Maharashtra,"Manwath, Maharashtra",19.30609,76.4967919,43.08000031,Exceeding
Marhaura,Bihar,"Marhaura, Bihar",25.97018,84.8763365,103.7400009,Exceeding
Masaurhi,Bihar,"Masaurhi, Bihar",25.35128,85.0311411,87.23999939,Exceeding
Mathabhanga,West Bengal,"Mathabhanga, West Bengal",26.34273,89.2153363,44.38000031,Exceeding
Mathura,Uttar Pradesh,"Mathura, Uttar Pradesh",27.49241,77.673673,105.4599991,Exceeding
Mau,Uttar Pradesh,"Mau, Uttar Pradesh",25.94628,83.5610119,100.5600006,Exceeding
Mauganj,Madhya Pradesh,"Mauganj, Madhya Pradesh",24.66967,81.8810227,54.51999969,Exceeding
Medininagar,Jharkhand,"Medininagar, Jharkhand",24.04651,84.0768462,46.53999939,Exceeding
Mehsana,Gujarat,"Mehsana, Gujarat",23.58796,72.3693252,58.94000015,Exceeding
Memari,West Bengal,"Memari, West Bengal",23.17455,88.1033883,74.25999908,Exceeding
Merta City,Rajasthan,"Merta City, Rajasthan",26.64495,74.0309418,58.8,Exceeding
Mhow Cantonment,Madhya Pradesh,"Mhow Cantonment, Madhya Pradesh",22.5505,75.7625071,48.68000031,Exceeding
Mhowgaon,Madhya Pradesh,"Mhowgaon, Madhya Pradesh",22.57806,75.7313342,49.01999969,Exceeding
Midnapore,West Bengal,"Midnapore, West Bengal",22.42566,87.3198819,62.62000046,Exceeding
Mihijam,Jharkhand,"Mihijam, Jharkhand",23.8473,86.8824997,67.65999985,Exceeding
Mirganj,Bihar,"Mirganj, Bihar",26.36959,84.3357992,107.5800003,Exceeding
Mirzapur,Uttar Pradesh,"Mirzapur, Uttar Pradesh",25.1337,82.5644344,80.20000153,Exceeding
Modasa,Gujarat,"Modasa, Gujarat",23.46431,73.2987578,50.97999954,Exceeding
Moga,Punjab,"Moga, Punjab",30.82301,75.1734471,77.27999878,Exceeding
Mohali,Punjab,"Mohali, Punjab",30.70465,76.7178726,55.15999985,Exceeding
Mokameh,Bihar,"Mokameh, Bihar",25.3984,85.9158262,89.5,Exceeding
Monoharpur,West Bengal,"Monoharpur, West Bengal",21.99289,87.3090683,57.4,Exceeding
Morbi,Gujarat,"Morbi, Gujarat",22.82519,70.8490809,49.65999985,Exceeding
Morena,Madhya Pradesh,"Morena, Madhya Pradesh",26.49472,77.9940222,101.1599991,Exceeding
"Morinda, India",Punjab,"Morinda, India, Punjab",30.79123,76.502549,61.45999985,Exceeding
Morshi,Maharashtra,"Morshi, Maharashtra",21.3242,78.0138306,49.49999924,Exceeding
Motihari,Bihar,"Motihari, Bihar",26.64385,84.9040337,99.48000031,Exceeding
Motipur,Bihar,"Motipur, Bihar",26.25255,85.1608985,100.8399994,Exceeding
Mukerian,Punjab,"Mukerian, Punjab",31.95015,75.6174525,49.7,Exceeding
Muktsar,Punjab,"Muktsar, Punjab",30.47618,74.5121599,80.18000031,Exceeding
Muktsar,Punjab,"Muktsar, Punjab",30.47618,74.5121599,80.18000031,Exceeding
Mul,Maharashtra,"Mul, Maharashtra",20.06517,79.675246,42.67999954,Exceeding
Multai,Madhya Pradesh,"Multai, Madhya Pradesh",21.77518,78.2571256,45.11999969,Exceeding
Mundi,Madhya Pradesh,"Mundi, Madhya Pradesh",22.07718,76.4794435,52.05999985,Exceeding
Mungeli,Chhattisgarh,"Mungeli, Chhattisgarh",22.06854,81.6856808,69,Exceeding
Munger,Bihar,"Munger, Bihar",25.3708,86.4733903,88.66000214,Exceeding
Murliganj,Bihar,"Murliganj, Bihar",25.90102,86.9949372,80.11999969,Exceeding
Murshidabad,West Bengal,"Murshidabad, West Bengal",24.1759,88.2801785,65.94000092,Exceeding
Murtijapur,Maharashtra,"Murtijapur, Maharashtra",20.72327,77.369906,50.75999985,Exceeding
Musabani,Jharkhand,"Musabani, Jharkhand",22.50354,86.4541511,65.12000046,Exceeding
Muzaffarnagar,Uttar Pradesh,"Muzaffarnagar, Uttar Pradesh",29.47268,77.7085091,69.93999939,Exceeding
Nabha,Punjab,"Nabha, Punjab",30.37302,76.1469551,68.73999939,Exceeding
Nadbai,Rajasthan,"Nadbai, Rajasthan",27.2144,77.2031493,95.43999786,Exceeding
Nadiad,Gujarat,"Nadiad, Gujarat",22.69159,72.8633635,51.74000015,Exceeding
Nagar,Rajasthan,"Nagar, Rajasthan",27.4242,77.099613,98.97999878,Exceeding
Nagina,Uttar Pradesh,"Nagina, Uttar Pradesh",29.44264,78.4326638,50.78000031,Exceeding
Nagla,Uttarakhand,"Nagla, Uttarakhand",28.99815,79.5125662,52.15999985,Exceeding
Nahan,Himachal Pradesh,"Nahan, Himachal Pradesh",30.55993,77.295483,47,Exceeding
Naihati,West Bengal,"Naihati, West Bengal",22.88952,88.4219729,69.06000214,Exceeding
Naila Janjgir,Chhattisgarh,"Naila Janjgir, Chhattisgarh",22.01931,82.5699766,71.38000183,Exceeding
Nainpur,Madhya Pradesh,"Nainpur, Madhya Pradesh",22.42661,80.1095601,48.23999939,Exceeding
Najibabad,Uttar Pradesh,"Najibabad, Uttar Pradesh",29.61234,78.3441643,51.27999954,Exceeding
Nakodar,Punjab,"Nakodar, Punjab",31.12702,75.4817733,77.55999908,Exceeding
Nakur,Uttar Pradesh,"Nakur, Uttar Pradesh",29.91987,77.3065952,70.58000031,Exceeding
Nanded,Maharashtra,"Nanded, Maharashtra",19.13825,77.3209555,44.04000015,Exceeding
Nandgaon,Maharashtra,"Nandgaon, Maharashtra",20.30686,74.65459,43,Exceeding
Nandura,Maharashtra,"Nandura, Maharashtra",20.83073,76.4505243,51.89999924,Exceeding
Nangal,Punjab,"Nangal, Punjab",31.38322,76.3765753,42.77999954,Exceeding
Nangloi Jat,Delhi,"Nangloi Jat, Delhi",28.68204,77.0675607,122.1800003,Exceeding
Nanpara,Uttar Pradesh,"Nanpara, Uttar Pradesh",27.86747,81.4992884,76.41999969,Exceeding
Naraura,Uttar Pradesh,"Naraura, Uttar Pradesh",28.19678,78.3813785,98.21999969,Exceeding
Narkatiaganj,Bihar,"Narkatiaganj, Bihar",27.10635,84.4749925,81.17999878,Exceeding
Narkhed,Maharashtra,"Narkhed, Maharashtra",21.46915,78.5291706,48.38000031,Exceeding
Narnaul,Haryana,"Narnaul, Haryana",28.06876,76.106789,73.91999969,Exceeding
Narsinghgarh,Madhya Pradesh,"Narsinghgarh, Madhya Pradesh",23.71486,77.0881034,49.64000015,Exceeding
Narsinghgarh,Madhya Pradesh,"Narsinghgarh, Madhya Pradesh",23.71486,77.0881034,49.64000015,Exceeding
Narwana,Haryana,"Narwana, Haryana",29.59599,76.1149662,82.45999908,Exceeding
Nasirabad,Rajasthan,"Nasirabad, Rajasthan",26.2984,74.7354242,55.33999939,Exceeding
Nathdwara,Rajasthan,"Nathdwara, Rajasthan",24.93116,73.8193405,50.30000076,Exceeding
Naugachhia,Bihar,"Naugachhia, Bihar",25.38734,87.0979867,81.3,Exceeding
Naugawan Sadat,Uttar Pradesh,"Naugawan Sadat, Uttar Pradesh",29.00411,78.4041297,63.57999954,Exceeding
Naura,Punjab,"Naura, Punjab",31.19205,76.0493444,65.86000061,Exceeding
Nautanwa,Uttar Pradesh,"Nautanwa, Uttar Pradesh",27.42417,83.4269996,73.81999969,Exceeding
Nawabganj,Uttar Pradesh,"Nawabganj, Uttar Pradesh",26.9268,81.1833809,108.4400009,Exceeding
Nawada,Bihar,"Nawada, Bihar",24.88669,85.5434572,82.06000061,Exceeding
Nawanshahr,Punjab,"Nawanshahr, Punjab",31.12556,76.118642,64.06000061,Exceeding
Nawapur,Maharashtra,"Nawapur, Maharashtra",21.16165,73.7946403,42.23999939,Exceeding
"Naya Nangal, Punjab",Punjab,"Naya Nangal, Punjab",31.3866405,76.3550457,43.91999969,Exceeding
NeemKaThana,Rajasthan,"NeemKaThana, Rajasthan",27.73937,75.777846,62.25999832,Exceeding
Nehtaur,Uttar Pradesh,"Nehtaur, Uttar Pradesh",29.32364,78.3870668,55.72000046,Exceeding
Nepanagar,Madhya Pradesh,"Nepanagar, Madhya Pradesh",21.45323,76.4215988,48.85999985,Exceeding
New Delhi,Delhi,"New Delhi, Delhi",28.61394,77.2090212,134.7199982,Exceeding
Nimbahera,Rajasthan,"Nimbahera, Rajasthan",24.62566,74.6810274,57.2,Exceeding
Niwai,Rajasthan,"Niwai, Rajasthan",26.36093,75.9289046,64.47999954,Exceeding
Niwari,Madhya Pradesh,"Niwari, Madhya Pradesh",25.27463,78.7022678,63.83999939,Exceeding
Nohar,Rajasthan,"Nohar, Rajasthan",29.17484,74.7688173,69.51999969,Exceeding
Nokha,Rajasthan,"Nokha, Rajasthan",27.55622,73.4731871,55.01999893,Exceeding
Nokha,Bihar,"Nokha, Bihar",25.1046,84.1421945,80.78000031,Exceeding
Noorpur,Uttar Pradesh,"Noorpur, Uttar Pradesh",29.15112,78.41266,59.04000092,Exceeding
North Dum Dum,West Bengal,"North Dum Dum, West Bengal",22.66261,88.4090043,65.21999969,Exceeding
Nowgong,Madhya Pradesh,"Nowgong, Madhya Pradesh",25.06225,79.4396622,62.05999985,Exceeding
Nowrozabad (Khodargama),Madhya Pradesh,"Nowrozabad (Khodargama), Madhya Pradesh",23.35247,80.9802002,45.31999969,Exceeding
Obra,Uttar Pradesh,"Obra, Uttar Pradesh",24.4745,82.9877866,48.1,Exceeding
Orai,Uttar Pradesh,"Orai, Uttar Pradesh",25.98752,79.4488695,86.5,Exceeding
Pachora,Maharashtra,"Pachora, Maharashtra",20.65889,75.3491798,52.28000107,Exceeding
Pachore,Madhya Pradesh,"Pachore, Madhya Pradesh",23.71346,76.7307663,53.05999985,Exceeding
Padra,Gujarat,"Padra, Gujarat",22.24116,73.085595,45.59999924,Exceeding
Padrauna,Uttar Pradesh,"Padrauna, Uttar Pradesh",26.89839,83.9797173,95.25999908,Exceeding
Paithan,Maharashtra,"Paithan, Maharashtra",19.47769,75.3849382,47.91999893,Exceeding
Pakaur,Jharkhand,"Pakaur, Jharkhand",24.63369,87.8500644,66.40000076,Exceeding
Pali,Rajasthan,"Pali, Rajasthan",25.77806,73.331147,53.96000061,Exceeding
Pali,Rajasthan,"Pali, Rajasthan",25.77806,73.331147,53.96000061,Exceeding
Palia Kalan,Uttar Pradesh,"Palia Kalan, Uttar Pradesh",28.43595,80.5714465,63.59999924,Exceeding
Palwal,Haryana,"Palwal, Haryana",28.14729,77.3259878,103.9599991,Exceeding
Panagar,Madhya Pradesh,"Panagar, Madhya Pradesh",23.29103,79.996282,53.71999969,Exceeding
Panchkula,Haryana,"Panchkula, Haryana",30.69421,76.860565,47.40000076,Exceeding
Panchla,West Bengal,"Panchla, West Bengal",22.5406,88.1364591,56.42000046,Exceeding
Pandharkaoda,Maharashtra,"Pandharkaoda, Maharashtra",20.02297,78.5490494,43.12000046,Exceeding
Pandhurna,Madhya Pradesh,"Pandhurna, Madhya Pradesh",21.59253,78.5291706,46.96000061,Exceeding
Pandua,West Bengal,"Pandua, West Bengal",23.07807,88.2788636,75.6,Exceeding
Panihati,West Bengal,"Panihati, West Bengal",22.69395,88.4036649,65.64000015,Exceeding
Panipat,Haryana,"Panipat, Haryana",29.39095,76.9635023,92.58000031,Exceeding
Panna,Madhya Pradesh,"Panna, Madhya Pradesh",24.71803,80.1819268,49.61999969,Exceeding
Panvel,Maharashtra,"Panvel, Maharashtra",18.9894,73.1175162,46.67999954,Exceeding
"Paonta Sahib, Himachal Pradesh",Himachal Pradesh,"Paonta Sahib, Himachal Pradesh",30.445283,77.6020569,49.8,Exceeding
Paradip,Odisha,"Paradip, Odisha",20.31655,86.6113628,42.56000061,Exceeding
Parasi,Uttar Pradesh,"Parasi, Uttar Pradesh",24.18355,82.7697705,46.85999985,Exceeding
Partur,Maharashtra,"Partur, Maharashtra",19.58576,76.213349,44.45999985,Exceeding
Pasan,Madhya Pradesh,"Pasan, Madhya Pradesh",23.15973,81.956891,47.74000092,Exceeding
Paschim Punropara,West Bengal,"Paschim Punropara, West Bengal",24.60074,88.0460894,64.86000061,Exceeding
Pathardi,Maharashtra,"Pathardi, Maharashtra",19.17614,75.1749671,41.9,Exceeding
Pathri,Maharashtra,"Pathri, Maharashtra",19.26324,76.4302771,43.08000031,Exceeding
Patratu,Jharkhand,"Patratu, Jharkhand",23.63292,85.3032811,63,Exceeding
Pattamundai,Odisha,"Pattamundai, Odisha",20.58549,86.5661006,45.3,Exceeding
Patti,Punjab,"Patti, Punjab",31.27459,74.8565613,85.90000153,Exceeding
Pattran,Punjab,"Pattran, Punjab",29.95933,76.0565965,82.2,Exceeding
Patur,Maharashtra,"Patur, Maharashtra",20.4628,76.938379,48.93999939,Exceeding
Pauni,Maharashtra,"Pauni, Maharashtra",20.79388,79.6368375,54.41999969,Exceeding
Pehowa,Haryana,"Pehowa, Haryana",29.98069,76.5846091,74.92000122,Exceeding
Petlad,Gujarat,"Petlad, Gujarat",22.48361,72.801351,47.05999908,Exceeding
Phagwara,Punjab,"Phagwara, Punjab",31.22316,75.7670466,73.61999817,Exceeding
Phalodi,Rajasthan,"Phalodi, Rajasthan",27.13123,72.3589284,53.8,Exceeding
Phaltan,Maharashtra,"Phaltan, Maharashtra",17.9935,74.4304276,44.36000061,Exceeding
Phillaur,Punjab,"Phillaur, Punjab",31.01899,75.7879404,79.50000153,Exceeding
Phulera,Rajasthan,"Phulera, Rajasthan",26.87673,75.2454159,66.86000061,Exceeding
Phulpur,Uttar Pradesh,"Phulpur, Uttar Pradesh",25.55104,82.088374,107.7399994,Exceeding
Phusro,Jharkhand,"Phusro, Jharkhand",23.76226,86.0020693,68.6,Exceeding
Pihani,Uttar Pradesh,"Pihani, Uttar Pradesh",27.61998,80.2006713,100.1199997,Exceeding
Pilani,Rajasthan,"Pilani, Rajasthan",28.38021,75.6091696,72.84000092,Exceeding
Pilibanga,Rajasthan,"Pilibanga, Rajasthan",29.4888,74.0748022,71.21999969,Exceeding
Pilkhuwa,Uttar Pradesh,"Pilkhuwa, Uttar Pradesh",28.70828,77.656542,96.3,Exceeding
Pimpri Chinchwad,Maharashtra,"Pimpri Chinchwad, Maharashtra",18.62978,73.7997094,50.45999985,Exceeding
Pindwara,Rajasthan,"Pindwara, Rajasthan",24.79888,73.0515196,47.32000046,Exceeding
Pipar City,Rajasthan,"Pipar City, Rajasthan",26.38799,73.529964,62.38000031,Exceeding
Piro,Bihar,"Piro, Bihar",25.3258,84.4015075,87.45999908,Exceeding
Pithampur,Madhya Pradesh,"Pithampur, Madhya Pradesh",22.61112,75.6772689,50.78000031,Exceeding
Poonch,Jammu and Kashmir,"Poonch, Jammu and Kashmir",33.767,74.0924041,43.52000046,Exceeding
Porsa,Madhya Pradesh,"Porsa, Madhya Pradesh",26.67287,78.36924,105.5400009,Exceeding
Powayan,Uttar Pradesh,"Powayan, Uttar Pradesh",28.06793,80.0967906,91.78000031,Exceeding
Prantij,Rajasthan,"Prantij, Rajasthan",23.43675,72.8528118,52.7,Exceeding
Pratapgarh,Rajasthan,"Pratapgarh, Rajasthan",24.03165,74.7787387,51.57999878,Exceeding
Pratapgarh,Tripura,"Pratapgarh, Tripura",23.81892,91.276079,77.25999908,Exceeding
Prithvipur,Madhya Pradesh,"Prithvipur, Madhya Pradesh",25.20863,78.7511708,61.43999939,Exceeding
Pukhrayan,Uttar Pradesh,"Pukhrayan, Uttar Pradesh",26.22667,79.8380778,93.64000092,Exceeding
Pulgaon,Maharashtra,"Pulgaon, Maharashtra",20.72376,78.3216329,50.58000031,Exceeding
Puranpur,Uttar Pradesh,"Puranpur, Uttar Pradesh",28.51295,80.1477341,63.82000122,Exceeding
Purna,Maharashtra,"Purna, Maharashtra",19.17903,77.030539,42.18000031,Exceeding
Purnia,Bihar,"Purnia, Bihar",25.77714,87.4752551,75.59999847,Exceeding
Purquazi,Uttar Pradesh,"Purquazi, Uttar Pradesh",29.65722,77.8395869,64.51999969,Exceeding
Purwa,Uttar Pradesh,"Purwa, Uttar Pradesh",26.45663,80.771321,110.3800003,Exceeding
Pusad,Maharashtra,"Pusad, Maharashtra",19.91043,77.568649,46.35999908,Exceeding
Qadian,Punjab,"Qadian, Punjab",31.81906,75.3791096,65.29999924,Exceeding
Radhanpur,Gujarat,"Radhanpur, Gujarat",23.82864,71.6139348,51.3,Exceeding
Rafiganj,Bihar,"Rafiganj, Bihar",24.81845,84.6343104,73.91999969,Exceeding
RaghogarhVijaypur,Madhya Pradesh,"RaghogarhVijaypur, Madhya Pradesh",24.48297,77.1600201,53.11999969,Exceeding
Raghunathpur,West Bengal,"Raghunathpur, West Bengal",23.53438,86.6686635,76.58000031,Exceeding
Rahatgarh,Madhya Pradesh,"Rahatgarh, Madhya Pradesh",23.79055,78.3984423,51.57999954,Exceeding
Rahuri,Maharashtra,"Rahuri, Maharashtra",19.3951,74.6520835,47.44000015,Exceeding
Raiganj,West Bengal,"Raiganj, West Bengal",25.63287,88.1319057,67.09999924,Exceeding
Raigarh,Chhattisgarh,"Raigarh, Chhattisgarh",21.8974,83.3949632,60.01999969,Exceeding
Raikot,Punjab,"Raikot, Punjab",30.65356,75.5917092,78.59999847,Exceeding
Rairangpur,Odisha,"Rairangpur, Odisha",22.27093,86.1700894,65.1,Exceeding
Raisen,Madhya Pradesh,"Raisen, Madhya Pradesh",23.33273,77.7823973,49.97999954,Exceeding
Raisinghnagar,Rajasthan,"Raisinghnagar, Rajasthan",29.53669,73.4445392,55.34000015,Exceeding
Rajagangapur,Odisha,"Rajagangapur, Odisha",22.1902,84.5798623,52.85999985,Exceeding
Rajakhera,Rajasthan,"Rajakhera, Rajasthan",26.89465,78.1706939,108.8800003,Exceeding
Rajaldesar,Rajasthan,"Rajaldesar, Rajasthan",28.0307,74.4701475,58.44000015,Exceeding
Rajarhat,West Bengal,"Rajarhat, West Bengal",22.62363,88.44098,58.35999832,Exceeding
Rajepur,Uttar Pradesh,"Rajepur, Uttar Pradesh",27.48269,79.6607359,104.7799988,Exceeding
Rajesultanpur,Uttar Pradesh,"Rajesultanpur, Uttar Pradesh",26.30343,83.0784157,108.0799988,Exceeding
Rajgarh,Rajasthan,"Rajgarh, Rajasthan",28.63534,75.3820239,64.26000061,Exceeding
Rajgarh,Madhya Pradesh,"Rajgarh, Madhya Pradesh",23.85086,76.7336521,53.64000015,Exceeding
Rajgarh (Alwar),Rajasthan,"Rajgarh (Alwar), Rajasthan",27.23781,76.6240881,77.54000092,Exceeding
Rajgir,Bihar,"Rajgir, Bihar",25.01726,85.4161642,79.73999939,Exceeding
Rajpipla,Gujarat,"Rajpipla, Gujarat",21.87151,73.5030517,45.56000061,Exceeding
Rajpur Sonarpur,West Bengal,"Rajpur Sonarpur, West Bengal",22.44733,88.3919562,60.74000015,Exceeding
Rajpura,Punjab,"Rajpura, Punjab",30.47658,76.5905317,63.27999954,Exceeding
Rajsamand,Rajasthan,"Rajsamand, Rajasthan",25.05833,73.8860034,49.05999985,Exceeding
Rajura,Maharashtra,"Rajura, Maharashtra",19.77746,79.3662675,43.01999969,Exceeding
Ramganj Mandi,Rajasthan,"Ramganj Mandi, Rajasthan",24.64955,75.9434209,56.35999985,Exceeding
Ramgarh,Jharkhand,"Ramgarh, Jharkhand",23.63626,85.5124209,70.4,Exceeding
Ramnagar,Uttarakhand,"Ramnagar, Uttarakhand",29.39476,79.1264997,45.04000015,Exceeding
Ramnagar,Uttarakhand,"Ramnagar, Uttarakhand",29.39476,79.1264997,45.04000015,Exceeding
Ramnagar,Bihar,"Ramnagar, Bihar",27.1669,84.3249112,80.11999969,Exceeding
Ramngarh,Rajasthan,"Ramngarh, Rajasthan",27.25026,75.1720488,64.73999863,Exceeding
Rampur,Uttar Pradesh,"Rampur, Uttar Pradesh",28.7983,79.0220287,63.92000046,Exceeding
Rampur Maniharan,Uttar Pradesh,"Rampur Maniharan, Uttar Pradesh",29.80756,77.4544211,70.21999969,Exceeding
Rampura Phul,Punjab,"Rampura Phul, Punjab",30.27013,75.2398001,80.56000061,Exceeding
Rampurhat,West Bengal,"Rampurhat, West Bengal",24.17448,87.7793421,57.38000031,Exceeding
Ramtek,Maharashtra,"Ramtek, Maharashtra",21.39286,79.3268397,54.07999954,Exceeding
Ranavav,Gujarat,"Ranavav, Gujarat",21.68338,69.7435857,43.24000092,Exceeding
Rania,Haryana,"Rania, Haryana",29.52552,74.8360918,79.44000092,Exceeding
Rapar,Gujarat,"Rapar, Gujarat",23.57298,70.6447369,49.24000015,Exceeding
Rasra,Uttar Pradesh,"Rasra, Uttar Pradesh",25.85911,83.855467,100.9999985,Exceeding
Ratangarh,Rajasthan,"Ratangarh, Rajasthan",26.29825,74.2736848,61.35999985,Exceeding
Rath,Uttar Pradesh,"Rath, Uttar Pradesh",25.60213,79.5659633,77.86000061,Exceeding
Ratia,Haryana,"Ratia, Haryana",29.67691,75.5713361,83.59999847,Exceeding
Ratlam,Madhya Pradesh,"Ratlam, Madhya Pradesh",23.33151,75.0366677,49,Exceeding
Rau,Madhya Pradesh,"Rau, Madhya Pradesh",22.63994,75.8033385,50.43999939,Exceeding
Raver,Maharashtra,"Raver, Maharashtra",21.24003,76.0333885,52.25999985,Exceeding
Rawatbhata,Rajasthan,"Rawatbhata, Rajasthan",24.9306,75.5909259,47.91999969,Exceeding
Rawatsar,Rajasthan,"Rawatsar, Rajasthan",29.25656,74.4048831,68.6,Exceeding
Raxaul Bazar,Bihar,"Raxaul Bazar, Bihar",26.97977,84.8515804,83.45999908,Exceeding
Reengus,Rajasthan,"Reengus, Rajasthan",27.37662,75.5579722,67.75999985,Exceeding
Rehli,Madhya Pradesh,"Rehli, Madhya Pradesh",23.63989,79.0654949,51.45999985,Exceeding
Renukoot,Uttar Pradesh,"Renukoot, Uttar Pradesh",24.21824,83.0346073,46.43999939,Exceeding
Reoti,Uttar Pradesh,"Reoti, Uttar Pradesh",25.84661,84.3783049,95.70000153,Exceeding
Revelganj,Bihar,"Revelganj, Bihar",25.76093,84.6740642,97.03999939,Exceeding
Rewa,Madhya Pradesh,"Rewa, Madhya Pradesh",24.53625,81.3036946,67.69999924,Exceeding
Rewari,Haryana,"Rewari, Haryana",28.19197,76.6190774,94.28000031,Exceeding
Risod,Maharashtra,"Risod, Maharashtra",19.97784,76.782702,44.8,Exceeding
Robertsganj,Uttar Pradesh,"Robertsganj, Uttar Pradesh",24.685,83.0683519,52.34000015,Exceeding
Rohtak,Haryana,"Rohtak, Haryana",28.89552,76.606611,104.4,Exceeding
Rosera,Bihar,"Rosera, Bihar",25.75679,86.0274622,96.89999847,Exceeding
Rudauli,Uttar Pradesh,"Rudauli, Uttar Pradesh",26.7509,81.7513551,104.8,Exceeding
Rudrapur,Uttar Pradesh,"Rudrapur, Uttar Pradesh",26.42926,83.6103533,101.8,Exceeding
Rupnagar,Punjab,"Rupnagar, Punjab",30.9661,76.5230961,51.9,Exceeding
Sabalgarh,Madhya Pradesh,"Sabalgarh, Madhya Pradesh",26.24698,77.4070144,75.94000092,Exceeding
Sadabad,Uttar Pradesh,"Sadabad, Uttar Pradesh",27.43909,78.0338078,109.8799988,Exceeding
Sadri,Rajasthan,"Sadri, Rajasthan",25.13256,73.4533779,50.11999969,Exceeding
Sadulshahar,Rajasthan,"Sadulshahar, Rajasthan",29.90958,74.1739057,69.75999908,Exceeding
Safidon,Haryana,"Safidon, Haryana",29.40607,76.6614853,94.21999969,Exceeding
Safipur,Uttar Pradesh,"Safipur, Uttar Pradesh",26.735,80.3463754,109.3800018,Exceeding
Sagwara,Rajasthan,"Sagwara, Rajasthan",23.66571,74.0241367,51.64000015,Exceeding
Saharanpur,Uttar Pradesh,"Saharanpur, Uttar Pradesh",29.968,77.5552066,65.51999969,Exceeding
Saharsa,Bihar,"Saharsa, Bihar",25.87737,86.5927887,81.83999939,Exceeding
Sahaspur,Uttar Pradesh,"Sahaspur, Uttar Pradesh",29.1216,78.6185941,56.28000031,Exceeding
Sahaswan,Uttar Pradesh,"Sahaswan, Uttar Pradesh",28.07247,78.7561222,96.63999786,Exceeding
Sahawar,Uttar Pradesh,"Sahawar, Uttar Pradesh",27.79394,78.8311858,101.3600006,Exceeding
Sahibganj,Jharkhand,"Sahibganj, Jharkhand",25.23812,87.6453592,57.97999954,Exceeding
Sahjanwa,Uttar Pradesh,"Sahjanwa, Uttar Pradesh",26.75378,83.213527,104.3199997,Exceeding
Saidpur,Uttar Pradesh,"Saidpur, Uttar Pradesh",25.5518,83.1833851,107.7799988,Exceeding
Sailu,Maharashtra,"Sailu, Maharashtra",19.4532,76.4389549,42.98000031,Exceeding
Sainthia,West Bengal,"Sainthia, West Bengal",23.9487,87.679312,59.47999954,Exceeding
Sakti,Chhattisgarh,"Sakti, Chhattisgarh",22.02379,82.9602387,63.2,Exceeding
Salaya,Gujarat,"Salaya, Gujarat",22.31047,69.6011772,48.7,Exceeding
Salumbar,Rajasthan,"Salumbar, Rajasthan",24.13865,74.0388252,52,Exceeding
Samalkha,Haryana,"Samalkha, Haryana",29.24053,77.0117647,97.2,Exceeding
Samana,Punjab,"Samana, Punjab",30.15543,76.1957618,75.33999786,Exceeding
Samastipur,Bihar,"Samastipur, Bihar",25.85603,85.7868233,100.4199997,Exceeding
Sambalpur,Odisha,"Sambalpur, Odisha",21.46687,83.9811665,58.48000031,Exceeding
Sambhal,Uttar Pradesh,"Sambhal, Uttar Pradesh",28.59036,78.5717631,78.94000092,Exceeding
Sambhar,Rajasthan,"Sambhar, Rajasthan",26.90955,75.1859476,59.98000031,Exceeding
Samdhan,Uttar Pradesh,"Samdhan, Uttar Pradesh",27.13657,79.701762,105.7999985,Exceeding
Samthar,Uttar Pradesh,"Samthar, Uttar Pradesh",25.84216,78.9033627,83.17999878,Exceeding
Sanand,Gujarat,"Sanand, Gujarat",22.99196,72.3772986,61.10000076,Exceeding
Sanawad,Madhya Pradesh,"Sanawad, Madhya Pradesh",22.1764,76.068199,55.91999969,Exceeding
Sanchore,Rajasthan,"Sanchore, Rajasthan",24.75174,71.7762183,54.75999985,Exceeding
Sandi,Uttar Pradesh,"Sandi, Uttar Pradesh",27.2901,79.9555447,104.9599991,Exceeding
Sandila,Uttar Pradesh,"Sandila, Uttar Pradesh",27.07647,80.5179133,103.3800003,Exceeding
Sangamner,Maharashtra,"Sangamner, Maharashtra",19.57612,74.2070191,43.94000015,Exceeding
Sangaria,Rajasthan,"Sangaria, Rajasthan",29.79033,74.4630794,77.17999878,Exceeding
Sangrur,Punjab,"Sangrur, Punjab",30.2458,75.8420716,79.55999908,Exceeding
Sarangpur,Madhya Pradesh,"Sarangpur, Madhya Pradesh",23.56645,76.472256,51.63999939,Exceeding
Sardarshahar,Rajasthan,"Sardarshahar, Rajasthan",28.44042,74.493705,54.91999969,Exceeding
Sardhana,Uttar Pradesh,"Sardhana, Uttar Pradesh",29.14507,77.6163803,82.88000031,Exceeding
Sarni,Madhya Pradesh,"Sarni, Madhya Pradesh",22.11866,78.1663346,41.50000076,Exceeding
Sarsawa,Uttar Pradesh,"Sarsawa, Uttar Pradesh",30.01976,77.3984704,68.21999969,Exceeding
Sarsod,Haryana,"Sarsod, Haryana",29.321,75.8345118,87.58000031,Exceeding
Sasaram,Bihar,"Sasaram, Bihar",24.95388,84.0142866,71.75999908,Exceeding
Satna,Madhya Pradesh,"Satna, Madhya Pradesh",24.60051,80.8322428,67.29999924,Exceeding
Saunda,Jharkhand,"Saunda, Jharkhand",23.65864,85.3444725,63.28000031,Exceeding
Sausar,Madhya Pradesh,"Sausar, Madhya Pradesh",21.65198,78.7957856,47.21999969,Exceeding
Savner,Maharashtra,"Savner, Maharashtra",21.38555,78.9217522,49.71999969,Exceeding
Sehore,Madhya Pradesh,"Sehore, Madhya Pradesh",23.20324,77.0844044,50.91999969,Exceeding
Sendhwa,Madhya Pradesh,"Sendhwa, Madhya Pradesh",21.6819,75.0942651,45.52000046,Exceeding
Seohara,Uttar Pradesh,"Seohara, Uttar Pradesh",29.20126,78.5944718,55.3,Exceeding
Seoni,Madhya Pradesh,"Seoni, Madhya Pradesh",22.08687,79.5434841,47.17999954,Exceeding
SeoniMalwa,Madhya Pradesh,"SeoniMalwa, Madhya Pradesh",22.45137,77.4660335,50.30000076,Exceeding
Serampore,West Bengal,"Serampore, West Bengal",22.75052,88.3405772,66.48000031,Exceeding
"Shahabad, Hardoi",Uttar Pradesh,"Shahabad, Hardoi, Uttar Pradesh",27.64414,79.9447096,102.2,Exceeding
"Shahabad, Rampur",Uttar Pradesh,"Shahabad, Rampur, Uttar Pradesh",28.57393,78.9966888,77.08000031,Exceeding
Shahade,Maharashtra,"Shahade, Maharashtra",21.54558,74.4683333,52.22000046,Exceeding
Shahbad,Haryana,"Shahbad, Haryana",30.15571,76.8697232,68.57999878,Exceeding
Shahdol,Madhya Pradesh,"Shahdol, Madhya Pradesh",23.30023,81.3568619,43.3,Exceeding
Shahganj,Uttar Pradesh,"Shahganj, Uttar Pradesh",26.05649,82.6814829,105.4800003,Exceeding
Shahjahanpur,Uttar Pradesh,"Shahjahanpur, Uttar Pradesh",27.87534,79.9147268,99.88000031,Exceeding
Shahpura,Rajasthan,"Shahpura, Rajasthan",27.38429,75.9611437,63.80000076,Exceeding
Shahpura,Rajasthan,"Shahpura, Rajasthan",27.38429,75.9611437,63.80000076,Exceeding
Shajapur,Madhya Pradesh,"Shajapur, Madhya Pradesh",23.42729,76.2729839,51.12000046,Exceeding
Shaktigarh,Uttarakhand,"Shaktigarh, Uttarakhand",29.01287,79.646,51.61999969,Exceeding
Shamgarh,Madhya Pradesh,"Shamgarh, Madhya Pradesh",24.18832,75.6352989,56.14000015,Exceeding
Shamli,Uttar Pradesh,"Shamli, Uttar Pradesh",29.4502,77.3172046,83.00000153,Exceeding
"Shamsabad, Agra",Uttar Pradesh,"Shamsabad, Agra, Uttar Pradesh",27.01681,78.1236592,109.6000015,Exceeding
"Shamsabad, Farrukhabad",Uttar Pradesh,"Shamsabad, Farrukhabad, Uttar Pradesh",27.53634,79.4394459,103,Exceeding
Shegaon,Maharashtra,"Shegaon, Maharashtra",20.79299,76.6910458,52.71999969,Exceeding
Sheikhpura,Bihar,"Sheikhpura, Bihar",25.14169,85.8628915,83.70000153,Exceeding
Shendurjana,Maharashtra,"Shendurjana, Maharashtra",21.5284,78.2846303,48.34000015,Exceeding
Sheoganj,Rajasthan,"Sheoganj, Rajasthan",25.14182,73.0626351,53.7,Exceeding
Sheohar,Bihar,"Sheohar, Bihar",26.51459,85.2942313,94,Exceeding
Sheopur,Madhya Pradesh,"Sheopur, Madhya Pradesh",25.67282,76.6961305,62.11999969,Exceeding
Sherghati,Bihar,"Sherghati, Bihar",24.55951,84.7994271,64.75999985,Exceeding
Sherkot,Uttar Pradesh,"Sherkot, Uttar Pradesh",29.32277,78.574602,50.54000015,Exceeding
"Shikarpur, Bulandshahr",Uttar Pradesh,"Shikarpur, Bulandshahr, Uttar Pradesh",28.27976,78.0109764,97.45999908,Exceeding
Shikohabad,Uttar Pradesh,"Shikohabad, Uttar Pradesh",27.10464,78.5870112,108.4799988,Exceeding
Shirdi,Maharashtra,"Shirdi, Maharashtra",19.76454,74.4762124,43.9,Exceeding
ShirpurWarwade,Maharashtra,"ShirpurWarwade, Maharashtra",21.37054,74.8682569,52.64000092,Exceeding
Shirur,Maharashtra,"Shirur, Maharashtra",18.82498,74.3775524,44.34000015,Exceeding
Shishgarh,Uttar Pradesh,"Shishgarh, Uttar Pradesh",28.72926,79.3155716,64.66000061,Exceeding
Shivpuri,Madhya Pradesh,"Shivpuri, Madhya Pradesh",25.43205,77.6643815,53.42000046,Exceeding
Shrigonda,Maharashtra,"Shrigonda, Maharashtra",18.61754,74.6981267,43.11999969,Exceeding
Shrirampur,Maharashtra,"Shrirampur, Maharashtra",19.61948,74.6567407,44.40000076,Exceeding
Shujalpur,Madhya Pradesh,"Shujalpur, Madhya Pradesh",23.3882,76.7163359,51,Exceeding
Siana,Uttar Pradesh,"Siana, Uttar Pradesh",28.62791,78.0609138,84.53999939,Exceeding
Sidhi,Madhya Pradesh,"Sidhi, Madhya Pradesh",24.3956,81.8825279,51.87999954,Exceeding
Sidhpur,Gujarat,"Sidhpur, Gujarat",23.93086,72.3621359,53.48000107,Exceeding
Sihawa,Chhattisgarh,"Sihawa, Chhattisgarh",20.28063,81.9314417,52.55999908,Exceeding
Sihor,Gujarat,"Sihor, Gujarat",21.71974,71.9597023,43.57999954,Exceeding
Sihora,Madhya Pradesh,"Sihora, Madhya Pradesh",23.48658,80.1065646,54.44000015,Exceeding
Sikanderpur,Uttar Pradesh,"Sikanderpur, Uttar Pradesh",26.03681,84.0378894,101.8399994,Exceeding
Sikandra Rao,Uttar Pradesh,"Sikandra Rao, Uttar Pradesh",27.68641,78.378274,107.7600021,Exceeding
Sikandrabad,Uttar Pradesh,"Sikandrabad, Uttar Pradesh",28.45112,77.6954889,102.9600006,Exceeding
Sikar,Rajasthan,"Sikar, Rajasthan",27.60939,75.1397935,58.18000031,Exceeding
Silao,Bihar,"Silao, Bihar",25.08169,85.42853,83.96000061,Exceeding
Siliguri,West Bengal,"Siliguri, West Bengal",26.7271,88.3952861,60.57999954,Exceeding
Sillod,Maharashtra,"Sillod, Maharashtra",20.30794,75.6528116,45.85999985,Exceeding
Simdega,Jharkhand,"Simdega, Jharkhand",22.61511,84.4959985,53.56000137,Exceeding
Singhana,Rajasthan,"Singhana, Rajasthan",28.09841,75.8388698,62.41999893,Exceeding
Sirhind Fatehgarh Sahib,Punjab,"Sirhind Fatehgarh Sahib, Punjab",30.62451,76.3863018,69.49999847,Exceeding
Sirohi,Rajasthan,"Sirohi, Rajasthan",24.88515,72.8574558,53.23999939,Exceeding
Sironj,Madhya Pradesh,"Sironj, Madhya Pradesh",24.0993,77.6707924,50.61999969,Exceeding
Sirsa,Haryana,"Sirsa, Haryana",29.53207,75.0317734,84.9,Exceeding
Sirsaganj,Uttar Pradesh,"Sirsaganj, Uttar Pradesh",27.05526,78.6893782,112.4400009,Exceeding
Sirsi,Uttar Pradesh,"Sirsi, Uttar Pradesh",28.63954,78.6427107,76.06000214,Exceeding
Sitamarhi,Bihar,"Sitamarhi, Bihar",26.5887,85.5012971,89.41999969,Exceeding
Sitarganj,Uttarakhand,"Sitarganj, Uttarakhand",28.92355,79.7007211,52.16000061,Exceeding
Siwan,Bihar,"Siwan, Bihar",26.22432,84.3599953,102.7199997,Exceeding
Sohagpur,Madhya Pradesh,"Sohagpur, Madhya Pradesh",22.70171,78.1934911,50.45999985,Exceeding
Sohna,Haryana,"Sohna, Haryana",28.2487,77.0635117,111.9800003,Exceeding
Sojat,Rajasthan,"Sojat, Rajasthan",25.92469,73.6669099,55.42000046,Exceeding
Sonamukhi,West Bengal,"Sonamukhi, West Bengal",23.30758,87.4157938,71.32000122,Exceeding
Sonepur,Bihar,"Sonepur, Bihar",25.69429,85.1783764,98.43999939,Exceeding
Sonipat,Haryana,"Sonipat, Haryana",28.99308,77.0150735,110.6199997,Exceeding
Soro,Odisha,"Soro, Odisha",21.28149,86.6917887,45.01999893,Exceeding
Soron,Uttar Pradesh,"Soron, Uttar Pradesh",27.88663,78.7447868,101.9399994,Exceeding
South Dum Dum,West Bengal,"South Dum Dum, West Bengal",22.60893,88.3983432,61.08000107,Exceeding
Soyagaon,Maharashtra,"Soyagaon, Maharashtra",20.55282,74.512637,46.38000031,Exceeding
Sri Ganganagar,Rajasthan,"Sri Ganganagar, Rajasthan",29.90938,73.8799805,66.36000061,Exceeding
Sri Madhopur,Rajasthan,"Sri Madhopur, Rajasthan",27.47279,75.5968715,60.71999969,Exceeding
Srirampore,West Bengal,"Srirampore, West Bengal",22.75052,88.3405772,66.48000031,Exceeding
Suar,Uttar Pradesh,"Suar, Uttar Pradesh",29.02476,79.0560311,53.34000015,Exceeding
Sugauli,Bihar,"Sugauli, Bihar",26.75845,84.7420032,97.1,Exceeding
Sujangarh,Rajasthan,"Sujangarh, Rajasthan",27.70448,74.4642861,56.89999924,Exceeding
Sultan Pur Majra,Delhi,"Sultan Pur Majra, Delhi",28.69585,77.0805496,122.9600021,Exceeding
Sultanganj,Bihar,"Sultanganj, Bihar",25.24013,86.7404395,79.71999969,Exceeding
Sultanpur,Uttarakhand,"Sultanpur, Uttarakhand",29.16152,79.063577,51.61999893,Exceeding
Sumerpur,Rajasthan,"Sumerpur, Rajasthan",25.15264,73.0822804,51.14000092,Exceeding
Sumerpur,Uttar Pradesh,"Sumerpur, Uttar Pradesh",25.82639,80.1573915,91.81999817,Exceeding
Sunam,Punjab,"Sunam, Punjab",30.13056,75.8013975,82.45999908,Exceeding
Sundargarh,Odisha,"Sundargarh, Odisha",22.124,84.043175,54.68000031,Exceeding
Supaul,Bihar,"Supaul, Bihar",26.12337,86.6045134,80.93999786,Exceeding
Suratgarh,Rajasthan,"Suratgarh, Rajasthan",29.32186,73.9009228,56.29999924,Exceeding
Surendranagar Dudhrej,Gujarat,"Surendranagar Dudhrej, Gujarat",22.75232,71.6183852,45.04000015,Exceeding
Suri,West Bengal,"Suri, West Bengal",23.91293,87.5268393,56.34000092,Exceeding
SurothHindaun,Rajasthan,"SurothHindaun, Rajasthan",26.80897,77.1469666,86.40000153,Exceeding
Takhatgarh,Rajasthan,"Takhatgarh, Rajasthan",25.32397,73.005292,54.92000046,Exceeding
Taki,West Bengal,"Taki, West Bengal",22.58638,88.9078527,64.56000137,Exceeding
Talbehat,Uttar Pradesh,"Talbehat, Uttar Pradesh",25.04426,78.431061,57.23999939,Exceeding
Talegaon Dabhade,Maharashtra,"Talegaon Dabhade, Maharashtra",18.73758,73.6746626,46.92000046,Exceeding
Talode,Maharashtra,"Talode, Maharashtra",21.56281,74.2135303,49.67999878,Exceeding
Tamluk,West Bengal,"Tamluk, West Bengal",22.28581,87.9188533,56.55999985,Exceeding
Tanda,Uttar Pradesh,"Tanda, Uttar Pradesh",26.54326,82.6645469,105.0999985,Exceeding
Tarakeswar,West Bengal,"Tarakeswar, West Bengal",22.87866,88.014294,74.93999939,Exceeding
Tarana,Madhya Pradesh,"Tarana, Madhya Pradesh",23.33748,76.042092,48.52000046,Exceeding
Taranagar,Rajasthan,"Taranagar, Rajasthan",28.67147,75.0354017,61.76000061,Exceeding
Taraori,Haryana,"Taraori, Haryana",29.79996,76.9334186,78.38000031,Exceeding
Tarbha,Odisha,"Tarbha, Odisha",20.7317,83.6734049,51.14000015,Exceeding
Tarn Taran,Punjab,"Tarn Taran, Punjab",31.45387,74.9267599,83.75999756,Exceeding
Tenu damcumKathhara,Jharkhand,"Tenu damcumKathhara, Jharkhand",23.76168,85.8639766,69.03999863,Exceeding
Thakurdwara,Uttar Pradesh,"Thakurdwara, Uttar Pradesh",29.19115,78.8607099,50.95999985,Exceeding
Thana Bhawan,Uttar Pradesh,"Thana Bhawan, Uttar Pradesh",29.58748,77.4167876,75.03999939,Exceeding
Thanesar,Haryana,"Thanesar, Haryana",29.96988,76.8192941,74.86000214,Exceeding
Thangadh,Gujarat,"Thangadh, Gujarat",22.57615,71.2009861,40.80000076,Exceeding
Tharad,Gujarat,"Tharad, Gujarat",24.39669,71.6271514,53.08000031,Exceeding
Tikamgarh,Madhya Pradesh,"Tikamgarh, Madhya Pradesh",24.74561,78.8320779,56.27999954,Exceeding
Tilda Newra,Chhattisgarh,"Tilda Newra, Chhattisgarh",21.55139,81.800389,77.62000122,Exceeding
Tilhar,Uttar Pradesh,"Tilhar, Uttar Pradesh",27.96188,79.7370938,95.93999939,Exceeding
Tirora,Maharashtra,"Tirora, Maharashtra",21.40683,79.9309055,53.16000061,Exceeding
Tirwaganj,Uttar Pradesh,"Tirwaganj, Uttar Pradesh",26.95943,79.7890462,103.3599991,Exceeding
Titlagarh,Odisha,"Titlagarh, Odisha",20.28709,83.1466077,49.01999969,Exceeding
Todabhim,Rajasthan,"Todabhim, Rajasthan",26.91669,76.8158718,79.40000153,Exceeding
Todaraisingh,Rajasthan,"Todaraisingh, Rajasthan",26.0245,75.4838259,67.57999878,Exceeding
Tohana,Haryana,"Tohana, Haryana",29.71631,75.9056753,84.43999939,Exceeding
Tulsipur,Uttar Pradesh,"Tulsipur, Uttar Pradesh",27.52463,82.4156829,73.18000031,Exceeding
Tumsar,Maharashtra,"Tumsar, Maharashtra",21.38084,79.7455956,54.44000015,Exceeding
Tundla,Uttar Pradesh,"Tundla, Uttar Pradesh",27.22638,78.2425418,107.1600006,Exceeding
Udaipur,Tripura,"Udaipur, Tripura",23.53602,91.4869856,70.26000137,Exceeding
Udaipurwati,Rajasthan,"Udaipurwati, Rajasthan",27.73037,75.4752537,57.31999969,Exceeding
Ujhani,Uttar Pradesh,"Ujhani, Uttar Pradesh",28.00032,79.0051685,94.4,Exceeding
Uluberia,West Bengal,"Uluberia, West Bengal",22.47635,88.0897934,59.38000031,Exceeding
Umaria,Madhya Pradesh,"Umaria, Madhya Pradesh",23.60137,81.0754657,46.13999939,Exceeding
Umarkhed,Maharashtra,"Umarkhed, Maharashtra",19.59759,77.6916128,46.20000076,Exceeding
Umred,Maharashtra,"Umred, Maharashtra",20.84207,79.3261084,49.7,Exceeding
Umreth,Gujarat,"Umreth, Gujarat",22.69872,73.1143067,48.42000046,Exceeding
Unjha,Gujarat,"Unjha, Gujarat",23.8035,72.3902277,58.3,Exceeding
Unnao,Uttar Pradesh,"Unnao, Uttar Pradesh",26.53934,80.4878195,111.1600006,Exceeding
Uran,Maharashtra,"Uran, Maharashtra",18.87723,72.9283391,48.83999939,Exceeding
Urmar Tanda,Punjab,"Urmar Tanda, Punjab",31.6753,75.6339512,61.00000076,Exceeding
Utraula,Uttar Pradesh,"Utraula, Uttar Pradesh",27.31752,82.4183927,83.42000122,Exceeding
Vadnagar,Gujarat,"Vadnagar, Gujarat",23.77573,72.6165643,53.2,Exceeding
Vaijapur,Maharashtra,"Vaijapur, Maharashtra",19.92568,74.7284812,43.11999969,Exceeding
"Vijainagar, Ajmer",Rajasthan,"Vijainagar, Ajmer, Rajasthan",25.92676,74.6506322,55.28000107,Exceeding
Vijapur,Gujarat,"Vijapur, Gujarat",23.56094,72.7510921,56.37999954,Exceeding
Vijaypur,Madhya Pradesh,"Vijaypur, Madhya Pradesh",26.05383,77.3690496,65.14000015,Exceeding
Vikasnagar,Uttarakhand,"Vikasnagar, Uttarakhand",30.47503,77.7652346,48.1,Exceeding
Viramgam,Gujarat,"Viramgam, Gujarat",23.12496,72.0535829,55.7,Exceeding
Visnagar,Gujarat,"Visnagar, Gujarat",23.70238,72.5425606,57.8,Exceeding
Vrindavan,Uttar Pradesh,"Vrindavan, Uttar Pradesh",27.56501,77.6593394,109.9,Exceeding
Wadgaon Road,Maharashtra,"Wadgaon Road, Maharashtra",20.37178,78.1079763,43.83999939,Exceeding
Wadhwan,Gujarat,"Wadhwan, Gujarat",22.71145,71.6732681,45.13999939,Exceeding
Wani,Maharashtra,"Wani, Maharashtra",20.06084,78.9571069,44.6,Exceeding
Wankaner,Gujarat,"Wankaner, Gujarat",22.62363,70.9616056,49.47999954,Exceeding
Wara Seoni,Madhya Pradesh,"Wara Seoni, Madhya Pradesh",21.7654,80.0590804,51.94000015,Exceeding
Warhapur,Uttar Pradesh,"Warhapur, Uttar Pradesh",29.52789,78.5632461,47.55999985,Exceeding
Warisaliganj,Bihar,"Warisaliganj, Bihar",25.01252,85.6383484,73.72000122,Exceeding
Warora,Maharashtra,"Warora, Maharashtra",20.2506,79.0163018,46.26000061,Exceeding
Warud,Maharashtra,"Warud, Maharashtra",21.47121,78.2647004,48.38000031,Exceeding
Washim,Maharashtra,"Washim, Maharashtra",20.11191,77.1312586,43.33999939,Exceeding
Yamunanagar,Haryana,"Yamunanagar, Haryana",30.12905,77.2673901,69.81999969,Exceeding
Yawal,Maharashtra,"Yawal, Maharashtra",21.16809,75.6991717,54.95999908,Exceeding
Zaidpur,Uttar Pradesh,"Zaidpur, Uttar Pradesh",26.83393,81.331402,110.2,Exceeding
Zamania,Uttar Pradesh,"Zamania, Uttar Pradesh",25.42413,83.5576478,94.7,Exceeding
Zira,Punjab,"Zira, Punjab",30.96853,74.9880895,82.65999908,Exceeding
Zirakpur,Punjab,"Zirakpur, Punjab",30.64255,76.8173359,52.88000107,Exceeding
